City_ID,City,Lat,Lng,Max Temp,Humidity,Cloudiness,Wind Speed,Country,Date
0,port-aux-francais,-49.35,70.2167,279.84,97,100,16.34,TF,1699924180
1,moyale,3.5167,39.0584,292.98,86,100,2.64,KE,1699924180
2,port mathurin,-19.6833,63.4167,298.38,77,1,2.12,MU,1699924181
3,ola,59.5833,151.2833,258.89,75,66,5.91,RU,1699924182
4,hihifo,59.5833,151.2833,258.89,75,66,5.91,RU,1699924182
5,bogale,16.2833,95.4,298.34,89,95,2.48,MM,1699924094
6,turmalina,-17.2856,-42.73,297.67,42,5,0.52,BR,1699924183
7,tiksi,71.6872,128.8694,257.98,93,100,2.61,RU,1699924183
8,adamstown,-25.066,-130.1015,296.0,85,100,7.76,PN,1699924183
9,veinticinco de mayo,-35.4323,-60.1727,286.47,71,98,0.45,AR,1699924184
10,papatowai,-46.5619,169.4708,290.73,47,53,5.14,NZ,1699924028
11,taiohae,-46.5619,169.4708,290.73,47,53,5.14,NZ,1699924028
12,battambang,13.1027,103.1982,298.93,88,79,2.45,KH,1699924185
13,kavaratti,10.5669,72.642,300.51,71,44,1.43,IN,1699924185
14,grytviken,-54.2811,-36.5092,275.44,98,100,3.44,GS,1699924185
15,vorgashor,67.5833,63.95,258.99,90,100,3.41,RU,1699924186
16,dingwall,57.5953,-4.4272,281.12,97,100,1.61,GB,1699924186
17,blackmans bay,-43.0167,147.3167,289.55,47,23,1.34,AU,1699924186
18,vazante,-17.9869,-46.9078,301.06,26,7,0.11,BR,1699924187
19,kodiak,57.79,-152.4072,278.88,49,20,8.23,US,1699924187
20,shchyrets,57.79,-152.4072,278.88,49,20,8.23,US,1699924187
21,gebeit,21.0667,36.3167,297.87,70,100,1.73,SD,1699924188
22,bukama,-9.2,25.85,294.13,99,100,0.96,CD,1699924188
23,bethel,41.3712,-73.414,278.42,77,75,0.0,US,1699923941
24,north bend,43.4065,-124.2243,286.52,82,0,3.6,US,1699924188
25,sao jose da coroa grande,-8.8978,-35.1478,298.45,85,100,3.2,BR,1699924189
26,al bardiyah,31.7561,25.0865,293.55,67,0,7.38,LY,1699924189
27,waitangi,-43.9535,-176.5597,286.36,88,1,9.08,NZ,1699924032
28,kulhudhuffushi,6.6221,73.07,300.72,74,31,1.93,MV,1699924190
29,edinburgh of the seven seas,-37.0676,-12.3116,286.77,77,8,11.32,SH,1699924190
30,tazovsky,67.4667,78.7,253.11,98,19,2.7,RU,1699924190
31,vilyuysk,63.7553,121.6247,258.26,97,100,2.15,RU,1699924191
32,pandan,14.0453,124.1694,300.73,85,98,7.01,PH,1699924191
33,twon-brass,4.3151,6.2418,300.52,79,100,2.54,NG,1699924191
34,chonchi,-42.6128,-73.8092,279.71,88,68,1.53,CL,1699924192
35,susuman,62.7833,148.1667,243.02,98,77,0.44,RU,1699924192
36,merizo village,13.2658,144.6691,304.46,83,16,8.56,GU,1699924192
37,tazacorte,28.629,-17.9293,297.68,36,0,4.63,ES,1699924192
38,constantia,44.1833,28.65,275.53,50,31,4.18,RO,1699924193
39,huilong,31.8111,121.655,283.61,67,21,4.56,CN,1699924193
40,magadan,59.5667,150.8,259.1,73,75,5.64,RU,1699924145
41,badger,64.8,-147.5333,270.36,92,100,0.0,US,1699924181
42,cheremushki,52.8356,91.3944,272.18,93,100,2.71,RU,1699924194
43,bhamo,24.2667,97.2333,292.84,89,12,0.66,MM,1699924194
44,rancho palos verdes,33.7445,-118.387,294.81,75,75,4.12,US,1699923993
45,sitka,57.0531,-135.33,278.09,87,100,2.06,US,1699924195
46,ancud,-41.8697,-73.8203,279.89,71,28,4.2,CL,1699924195
47,benito juarez,19.385,-99.165,293.71,58,75,5.14,MX,1699924195
48,jamestown,42.097,-79.2353,282.35,75,0,4.63,US,1699923956
49,st. john's,47.5649,-52.7093,273.69,83,99,0.89,CA,1699924188
50,aasiaat,68.7098,-52.8699,262.98,83,100,1.56,GL,1699924196
51,porto novo,6.4965,2.6036,299.37,86,3,1.1,BJ,1699924197
52,ha'il,27.5219,41.6907,291.16,52,0,2.06,SA,1699924197
53,fada,9.5667,8.3,295.32,31,100,1.94,NG,1699924034
54,vilyuchinsk,52.9306,158.4028,270.89,69,100,2.65,RU,1699924198
55,enewetak,11.3474,162.3373,301.55,80,70,8.88,MH,1699924195
56,colonia,50.9333,6.95,285.51,74,20,8.23,DE,1699924048
57,cozumel,20.5083,-86.9458,300.34,96,100,3.09,MX,1699924198
58,hawaiian paradise park,19.5933,-154.9731,300.88,71,20,2.57,US,1699924199
59,guardo,42.7897,-4.8482,283.51,96,100,2.98,ES,1699924199
60,lompoc,34.6391,-120.4579,290.25,71,0,5.81,US,1699924199
61,ushuaia,-54.8,-68.3,270.92,96,76,0.45,AR,1699924200
62,labrador city,52.9463,-66.9114,261.96,96,70,0.84,CA,1699924200
63,taltal,-25.4,-70.4833,291.07,67,45,1.99,CL,1699924200
64,nichinan,31.6,131.3667,287.44,52,10,1.28,JP,1699924201
65,longyearbyen,78.2186,15.6401,263.06,85,75,4.63,SJ,1699924037
66,iqaluit,63.7506,-68.5145,255.2,64,12,2.24,CA,1699924201
67,west island,-12.1568,96.8225,300.14,78,75,4.12,CC,1699924202
68,road town,18.4167,-64.6167,301.17,74,40,5.14,VG,1699924006
69,vanimo,-2.6741,141.3028,301.7,77,69,2.0,PG,1699924203
70,bilibino,68.0546,166.4372,245.31,100,100,1.88,RU,1699924035
71,puerto san carlos,68.0546,166.4372,245.31,100,100,1.88,RU,1699924035
72,port elizabeth,-33.918,25.5701,288.88,86,71,1.79,ZA,1699924204
73,kingston,17.997,-76.7936,301.04,86,4,1.07,JM,1699924098
74,happy valley-goose bay,53.3168,-60.3315,266.68,88,41,2.33,CA,1699924204
75,georgetown,5.4112,100.3354,301.45,89,20,1.54,MY,1699924073
76,hyesan,41.4017,128.1778,271.65,42,8,0.17,KP,1699924206
77,margaret river,-33.95,115.0667,290.26,75,100,5.28,AU,1699924032
78,east london,-33.0153,27.9116,289.09,73,99,2.85,ZA,1699924207
79,puerto natales,-51.7236,-72.4875,274.21,85,87,3.51,CL,1699924130
80,kuala terengganu,5.3302,103.1408,300.23,82,42,1.23,MY,1699924157
81,banda aceh,5.5577,95.3222,299.82,84,100,3.97,ID,1699924208
82,isangel,-19.55,169.2667,300.21,74,75,6.17,VU,1699924033
83,lihue,21.9789,-159.3672,301.73,75,75,7.72,US,1699924209
84,aitape,-3.1374,142.3475,302.03,75,100,1.24,PG,1699924209
85,invercargill,-46.4,168.35,288.14,55,74,4.96,NZ,1699924210
86,ajaokuta,7.5623,6.655,300.32,76,98,0.89,NG,1699924210
87,san pedro pochutla,15.7333,-96.4667,301.99,83,24,1.22,MX,1699924210
88,nanakuli,21.3906,-158.1547,302.12,58,0,6.17,US,1699924211
89,tolanaro,-25.0319,46.9987,294.31,81,18,2.07,MG,1699924211
90,faya-largeau,17.9257,19.1043,298.34,19,88,11.05,TD,1699924211
91,ribeira grande,38.5167,-28.7,289.14,90,100,1.79,PT,1699924212
92,ilulissat,69.2167,-51.1,268.16,68,75,3.09,GL,1699924212
93,hermanus,-34.4187,19.2345,288.79,77,11,9.8,ZA,1699924212
94,ghanzi,-21.5667,21.7833,300.03,28,25,2.15,BW,1699924213
95,port alfred,-33.5906,26.891,287.14,94,94,5.23,ZA,1699924194
96,vadso,70.0744,29.7487,265.24,86,20,6.69,NO,1699924214
97,kalmunai,7.4167,81.8167,298.22,89,70,1.73,LK,1699924214
98,prainha,-1.8,-53.48,302.05,45,100,1.47,BR,1699924214
99,yylanly,-1.8,-53.48,302.05,45,100,1.47,BR,1699924214
100,haiku-pauwela,20.9219,-156.3051,300.16,63,20,7.2,US,1699924215
101,santana,-0.0583,-51.1817,302.25,79,20,4.12,BR,1699924215
102,college,64.8569,-147.8028,270.41,91,100,0.0,US,1699924216
103,daru,-9.0763,143.2092,302.1,58,28,3.56,PG,1699924216
104,anchorage,61.2181,-149.9003,272.57,93,75,1.54,US,1699924146
105,muynoq,43.7683,59.0214,279.06,48,61,5.63,UZ,1699924217
106,newman,37.3138,-121.0208,294.42,52,99,2.73,US,1699924217
107,kone,-21.0595,164.8658,301.42,40,5,3.98,NC,1699924218
108,kuantan,3.8077,103.326,300.17,84,63,1.71,MY,1699924218
109,male,4.1748,73.5089,300.12,83,75,2.06,MV,1699924218
110,sampit,-2.5333,112.95,301.5,77,34,1.23,ID,1699923964
111,puerto ayora,-0.7393,-90.3518,297.34,97,100,0.89,EC,1699924193
112,ytyk-kyuyel',-0.7393,-90.3518,297.34,97,100,0.89,EC,1699924193
113,marquette,46.5333,-87.6335,274.46,78,6,2.39,US,1699924220
114,san antonio de pale,-1.4014,5.6325,299.32,81,31,3.48,GQ,1699924026
115,crane,31.3974,-102.3501,284.35,83,100,3.49,US,1699924221
116,uturoa,-16.7333,-151.4333,300.1,83,61,6.91,PF,1699924221
117,soron,27.8833,78.75,292.37,43,100,1.26,IN,1699924222
118,punta arenas,-53.15,-70.9167,275.99,69,18,5.95,CL,1699924128
119,fuvahmulah,-53.15,-70.9167,275.99,69,18,5.95,CL,1699924128
120,coronel suarez,-37.4547,-61.9334,283.96,42,0,3.84,AR,1699924222
121,igarapava,-20.0383,-47.7469,300.98,31,80,1.37,BR,1699924155
122,tondano,1.3038,124.9112,299.2,70,93,0.46,ID,1699924174
123,guatire,10.4762,-66.5427,299.93,97,100,0.99,VE,1699924187
124,iskateley,67.6803,53.1512,262.05,88,100,4.02,RU,1699924224
125,maqat,47.65,53.3167,279.92,60,37,5.58,KZ,1699924224
126,palmer,42.1584,-72.3287,277.17,73,75,0.0,US,1699924225
127,guozhen,34.3659,107.359,281.27,60,8,0.58,CN,1699924225
128,stanley,54.868,-1.6985,281.92,90,20,5.14,GB,1699924226
129,nova sintra,14.8667,-24.7167,296.87,72,100,5.32,CV,1699924226
130,chas,23.6333,86.1667,291.29,56,12,1.91,IN,1699924226
131,belo sur tsiribihina,-19.7,44.55,295.56,81,2,1.71,MG,1699924227
132,karyes,37.3,22.5,283.26,88,87,0.74,GR,1699924227
133,dunedin,-45.8742,170.5036,286.84,74,99,4.03,NZ,1699924228
134,kapuskasing,49.4169,-82.4331,273.75,98,100,3.64,CA,1699924229
135,marka,1.7159,44.7717,300.18,79,100,3.09,SO,1699924229
136,northam,51.0333,-4.2167,286.07,90,100,11.18,GB,1699924229
137,avarua,-21.2078,-159.775,297.18,60,75,4.63,CK,1699924161
138,ust-nera,64.5667,143.2,244.32,97,59,2.16,RU,1699924230
139,portland,45.5234,-122.6762,284.28,85,0,0.45,US,1699923796
140,udachny,66.4167,112.4,267.29,85,100,3.85,RU,1699924231
141,asau,46.4333,26.4,276.66,83,76,2.56,RO,1699924231
142,minas de marcona,-15.2119,-75.1103,287.63,87,67,5.82,PE,1699924231
143,flying fish cove,-10.4217,105.6791,298.97,78,100,3.6,CX,1699924232
144,wailua homesteads,22.0669,-159.378,301.39,80,75,7.72,US,1699924207
145,pangkalpinang,-2.1333,106.1333,301.91,76,95,1.72,ID,1699924232
146,yarmouth,41.7057,-70.2286,278.13,84,100,1.54,US,1699924233
147,kerikeri,-35.2268,173.9474,294.77,66,100,0.45,NZ,1699924233
148,ad dilam,23.9915,47.1627,294.38,45,100,2.22,SA,1699924233
149,registro,-24.4875,-47.8436,297.63,90,99,0.33,BR,1699923994
150,xo'jaobod,40.666,72.5682,276.58,58,0,2.1,UZ,1699924234
151,yellowknife,62.456,-114.3525,262.15,92,100,2.45,CA,1699924199
152,albany,42.6001,-73.9662,275.56,76,93,0.72,US,1699924052
153,qaqortoq,60.7167,-46.0333,268.01,93,100,1.62,GL,1699924235
154,freetown,8.484,-13.2299,299.68,86,25,1.76,SL,1699924185
155,westport,41.1415,-73.3579,280.26,74,12,0.45,US,1699924235
156,reggane,26.7158,0.1714,295.28,20,5,5.01,DZ,1699924236
157,hede,33.7681,120.2517,280.05,51,0,2.37,CN,1699924236
158,gazi,35.3253,25.0669,292.04,77,20,4.63,GR,1699924236
159,rocky mountain house,52.3668,-114.9188,273.11,67,99,1.05,CA,1699924202
160,nouadhibou,20.931,-17.0347,297.14,33,13,4.63,MR,1699924237
161,erdenet,49.0333,104.0833,263.87,72,100,1.31,MN,1699924237
162,talnakh,69.4865,88.3972,255.75,97,52,4.55,RU,1699924203
163,olonkinbyen,70.9221,-8.7187,271.48,70,99,2.65,SJ,1699924238
164,hotan,37.0997,79.9269,278.4,25,100,2.71,CN,1699924238
165,ziro,27.6333,93.8333,279.96,64,7,1.21,IN,1699924238
166,nueva gerona,21.8833,-82.8,300.21,76,83,6.04,CU,1699924239
167,whitehorse,60.7161,-135.0538,268.72,85,100,7.6,CA,1699924239
168,chester,40.1254,-75.8749,279.35,81,0,2.06,US,1699924239
169,karasburg,-28.0167,18.75,294.28,16,0,5.44,NA,1699924240
170,atafu village,-8.5421,-172.5159,301.44,81,100,5.58,TK,1699924220
171,komotini,41.1228,25.3964,282.07,88,35,0.4,GR,1699924240
172,pacific grove,36.6177,-121.9166,288.39,80,0,4.92,US,1699923952
173,port lincoln,-34.7333,135.8667,289.88,70,64,4.74,AU,1699924241
174,bredasdorp,-34.5322,20.0403,287.96,81,9,7.13,ZA,1699924241
175,acapulco de juarez,16.8634,-99.8901,303.05,70,0,6.17,MX,1699924242
176,selfoss,63.9331,-20.9971,279.84,71,100,7.98,IS,1699924242
177,terrace,54.5163,-128.6035,273.83,93,21,1.2,CA,1699924068
178,viedma,-40.8135,-62.9967,292.68,24,94,7.68,AR,1699924243
179,seydi,39.4816,62.9137,281.92,42,96,3.73,TM,1699924243
180,nyagan,62.1406,65.3936,267.32,94,100,5.03,RU,1699924243
181,opp,31.2827,-86.2555,289.11,99,100,3.08,US,1699924244
182,broken hill,-31.95,141.4333,296.97,27,31,5.47,AU,1699924244
183,abeche,13.8292,20.8324,302.81,36,99,2.49,TD,1699924244
184,lorengau,-2.0226,147.2712,301.11,80,100,2.86,PG,1699924245
185,luderitz,-26.6481,15.1594,288.43,81,0,1.94,NA,1699924245
186,baihe,22.15,107.2333,286.26,75,100,1.65,CN,1699924245
187,richards bay,-28.783,32.0377,290.81,83,100,4.74,ZA,1699924246
188,nar'yan-mar,67.6713,53.087,262.1,88,100,4.02,RU,1699924246
189,tura,25.5198,90.2201,291.96,84,6,1.44,IN,1699924246
190,nantucket,41.2835,-70.0995,277.67,64,100,4.57,US,1699924226
191,evanston,42.0411,-87.6901,285.43,35,0,2.06,US,1699924031
192,persembe,41.0656,37.7714,290.83,80,100,5.7,TR,1699924247
193,alofi,-19.0595,-169.9187,299.09,83,100,6.17,NU,1699924248
194,kayangel,8.0823,134.7173,301.9,78,63,6.87,PW,1699924248
195,yaren,-0.5472,166.916,301.13,79,100,11.88,NR,1699924248
196,yemetsk,63.4721,41.7941,270.42,96,95,2.86,RU,1699924249
197,illela,13.7292,5.2975,297.62,13,100,4.9,NG,1699924249
198,hayvoron,48.3396,29.8679,277.51,70,24,1.25,UA,1699924249
199,'ohonua,48.3396,29.8679,277.51,70,24,1.25,UA,1699924249
200,dili,-8.5586,125.5736,303.04,62,4,2.35,TL,1699924250
201,isafjordur,66.0755,-23.124,274.76,86,57,2.89,IS,1699924250
202,prince rupert,54.3161,-130.3201,279.98,79,75,2.57,CA,1699924250
203,januaria,-15.4833,-44.3667,299.5,33,0,0.32,BR,1699924083
204,novaya igirma,57.1334,103.9112,271.88,92,100,4.39,RU,1699924251
205,petropavlovsk-kamchatsky,53.0452,158.6483,270.07,74,0,12.52,RU,1699924159
206,homer,59.6425,-151.5483,278.09,63,20,7.72,US,1699924252
207,thompson,55.7435,-97.8558,269.98,96,100,1.59,CA,1699924253
208,kendari,-3.945,122.4989,303.21,67,43,0.45,ID,1699924162
209,san patricio,28.017,-97.5169,290.84,91,100,5.33,US,1699924253
210,fale old settlement,-9.3852,-171.2468,299.64,89,100,6.38,TK,1699924254
211,prince george,53.9166,-122.753,273.85,96,100,1.99,CA,1699924078
212,deder,9.3167,41.45,286.12,80,33,1.14,ET,1699924254
213,bengkulu,-3.8004,102.2655,298.94,87,92,0.8,ID,1699924255
214,bayganin,48.6947,55.8742,278.49,73,100,8.07,KZ,1699924255
215,mossel bay,-34.1831,22.146,288.77,85,4,8.6,ZA,1699924255
216,knyaze-volkonskoye,48.4642,135.4567,264.34,93,46,2.24,RU,1699924256
217,fort st. john,56.2499,-120.8529,268.09,93,40,2.57,CA,1699924211
218,howrah,22.5892,88.3103,294.15,88,40,2.57,IN,1699924256
219,songjianghe,42.1859,127.479,271.13,57,7,1.75,CN,1699924256
220,borgo,46.0514,11.4544,281.68,67,48,1.44,IT,1699924257
221,salalah,17.0151,54.0924,299.2,89,34,2.06,OM,1699924257
222,puerto ayacucho,5.6639,-67.6236,298.24,91,92,1.66,VE,1699924257
223,saarijarvi,62.7049,25.254,271.24,92,100,3.1,FI,1699924258
224,ciudad lazaro cardenas,17.9583,-102.2,300.64,78,97,3.06,MX,1699924132
225,lesnoy,57.6198,63.0784,275.85,91,100,4.89,RU,1699924258
226,sept-iles,50.2001,-66.3821,270.15,83,67,3.09,CA,1699924259
227,fortuna,40.5982,-124.1573,287.58,92,75,0.0,US,1699924259
228,gutao,37.2025,112.1781,277.72,32,0,1.41,CN,1699924259
229,vorkuta,67.5,64.0,259.49,90,100,3.14,RU,1699924156
230,estacion coahuila,32.1939,-115.0017,297.53,18,100,2.29,MX,1699924260
231,anna regina,7.2644,-58.5077,299.44,85,0,3.36,GY,1699924260
232,hailey,43.5196,-114.3153,279.07,48,0,1.34,US,1699924025
233,hithadhoo,-0.6,73.0833,300.2,81,70,3.87,MV,1699924261
234,hamilton,39.1834,-84.5333,285.42,49,0,2.06,US,1699924090
235,kingman,35.1894,-114.053,291.79,24,0,3.6,US,1699924262
236,tselina,46.5338,41.0328,282.08,94,100,5.93,RU,1699924262
237,tortoli,39.9256,9.6572,290.2,71,6,3.89,IT,1699924263
238,qurayyat,31.3318,37.3428,290.25,59,40,4.12,SA,1699924263
239,lubang,13.8584,120.124,300.14,83,100,11.1,PH,1699924263
240,constitucion,-35.3333,-72.4167,283.5,84,10,6.61,CL,1699924264
241,fallon,39.4735,-118.7774,286.44,19,75,5.14,US,1699924264
242,new plymouth,-39.0667,174.0833,288.88,68,100,6.18,NZ,1699924264
243,kazan,55.7887,49.1221,280.18,78,100,6.9,RU,1699924265
244,jaipur,26.9167,75.8167,292.77,64,20,2.06,IN,1699924265
245,villafranca di verona,45.3524,10.8402,282.44,93,40,1.03,IT,1699924266
246,santa cruz,-17.8,-63.1667,300.85,78,31,2.57,BO,1699924138
247,noyabrsk,63.1994,75.4507,260.5,92,100,3.58,RU,1699924267
248,binzhou,37.3667,118.0167,277.75,31,67,2.35,CN,1699924121
249,luancheng,37.8792,114.6517,278.2,42,0,0.95,CN,1699924267
250,huarmey,-10.0681,-78.1522,293.35,84,98,4.43,PE,1699924268
251,alta,69.9689,23.2717,263.74,80,100,1.03,NO,1699924269
252,lodja,-3.4833,23.4333,294.21,100,100,1.01,CD,1699924269
253,derzhavinsk,51.1,66.3167,276.33,78,100,6.01,KZ,1699924270
254,utrik,11.2278,169.8474,301.31,81,100,7.99,MH,1699924270
255,egilsstadir,65.2653,-14.3948,275.1,93,75,1.54,IS,1699924255
256,windhoek,-22.5594,17.0832,296.72,37,100,1.75,NA,1699924271
257,chadan,51.2833,91.5833,260.1,95,97,1.61,RU,1699924272
258,bikenibeu village,1.3673,173.1241,304.13,74,75,3.6,KI,1699924272
259,corner brook,48.9667,-57.9484,269.08,94,36,1.18,CA,1699924272
260,kuqa,41.7278,82.9364,275.79,26,5,1.44,CN,1699924273
261,peace river,56.2501,-117.286,268.32,86,100,3.09,CA,1699924076
262,statesville,35.7826,-80.8873,285.72,72,0,0.0,US,1699924151
263,brisas de zicatela,15.8369,-97.0419,302.44,54,40,1.54,MX,1699924274
264,warrnambool,-38.3833,142.4833,292.79,68,100,3.35,AU,1699924274
265,lebu,-37.6167,-73.65,283.25,87,53,3.15,CL,1699924204
266,laayoune plage,-37.6167,-73.65,283.25,87,53,3.15,CL,1699924204
267,nemuro,43.3236,145.575,277.9,58,14,8.24,JP,1699924145
268,keflavik,64.0049,-22.5624,280.39,65,0,9.77,IS,1699924276
269,mamuju,-2.6748,118.8885,302.1,73,100,1.21,ID,1699924276
270,paita,-5.0892,-81.1144,293.75,83,10,7.91,PE,1699924277
271,lazaro cardenas,17.9583,-102.2,300.64,78,97,3.06,MX,1699924277
272,awjilah,29.1081,21.2869,291.73,85,0,3.75,LY,1699924278
273,gamboma,-1.8764,15.8644,295.15,91,85,0.32,CG,1699924278
274,mahabe,-1.8764,15.8644,295.15,91,85,0.32,CG,1699924278
275,mosjoen,65.836,13.1908,261.44,92,41,2.06,NO,1699924279
276,afaahiti,-17.75,-149.2833,302.08,89,99,5.98,PF,1699924279
277,al mayadin,35.0209,40.4535,294.87,28,92,3.53,SY,1699924279
278,cadale,2.7603,46.3222,300.78,75,100,1.75,SO,1699924280
279,saratamata,2.7603,46.3222,300.78,75,100,1.75,SO,1699924280
280,puerto baquerizo moreno,-0.9,-89.6,296.81,84,100,4.9,EC,1699924281
281,kupang,-10.1667,123.5833,305.47,62,20,2.57,ID,1699924242
282,borkum,53.5809,6.6915,286.45,79,64,18.52,DE,1699924281
283,holualoa,19.6228,-155.9522,301.36,73,40,4.63,US,1699924282
284,ciudad guayana,8.3533,-62.6528,300.11,83,10,3.4,VE,1699924282
285,kananga,-5.8958,22.4178,292.98,95,100,1.71,CD,1699924283
286,upington,-28.4478,21.2561,293.63,17,0,6.76,ZA,1699924161
287,togur,58.3631,82.8265,267.12,92,16,3.13,RU,1699924284
288,vernon,50.2581,-119.2691,279.89,52,4,2.06,CA,1699924284
289,devrekani,41.603,33.8392,281.23,89,100,3.24,TR,1699924285
290,laojunmiao,39.8333,97.7333,271.37,38,74,2.03,CN,1699924285
291,ghat,24.9647,10.1728,291.36,40,0,2.19,LY,1699924285
292,uusikaupunki,60.8004,21.4084,272.33,85,100,3.15,FI,1699924286
293,vershino-darasunskiy,52.35,115.5167,261.98,82,72,1.63,RU,1699924286
294,basco,20.4487,121.9702,299.07,69,82,11.17,PH,1699924287
295,'ain el melh,34.8415,4.1638,285.57,49,2,1.84,DZ,1699924287
296,natal,-5.795,-35.2094,299.51,78,20,3.09,BR,1699924167
297,hell-ville,-13.4,48.2667,299.95,78,99,1.47,MG,1699924288
298,la passe,45.5549,-0.8967,289.28,95,100,6.01,FR,1699924288
299,mayen abun,45.5549,-0.8967,289.28,95,100,6.01,FR,1699924288
300,morant bay,17.8815,-76.4093,300.21,84,6,5.06,JM,1699924289
301,lerwick,60.1545,-1.1494,281.11,70,92,6.08,GB,1699924289
302,semporna,4.4818,118.6112,301.21,77,25,0.62,MY,1699924290
303,pospelikha,51.95,81.7667,276.08,97,100,4.8,RU,1699924290
304,mablethorpe,51.95,81.7667,276.08,97,100,4.8,RU,1699924290
305,santiago,-33.4569,-70.6483,290.85,52,0,4.63,CL,1699924202
306,tubarjal,30.4999,38.216,293.71,39,100,2.28,SA,1699924291
307,petukhovo,55.0692,67.9019,276.56,82,100,6.89,RU,1699924291
308,zeerust,-25.5369,26.0751,292.07,62,0,4.95,ZA,1699924292
309,coihueco,-36.6167,-71.8333,284.56,66,0,4.12,CL,1699924292
310,magistral'nyy,56.1725,107.4458,266.13,94,100,2.76,RU,1699924293
311,greenville,35.6127,-77.3663,280.44,96,0,0.0,US,1699924272
312,sheksna,59.21,38.5107,274.22,99,100,3.96,RU,1699924293
313,robore,-18.3333,-59.75,302.83,49,9,2.51,BO,1699924294
314,karmaskaly,54.3709,56.1837,278.06,95,100,8.35,RU,1699924294
315,pontianak,-0.0333,109.3333,300.14,88,20,1.54,ID,1699924294
316,klyuchi,52.2667,79.1667,276.31,92,99,4.15,RU,1699924295
317,sinabang,2.4803,96.3801,297.29,93,100,1.31,ID,1699924295
318,zaozersk,69.4005,32.4476,260.07,100,93,1.1,RU,1699924296
319,tofol,5.3248,163.0078,304.03,70,75,4.12,FM,1699924296
320,dryden,49.7833,-92.7503,273.31,86,40,2.57,CA,1699924296
321,tallulah,32.4085,-91.1868,290.18,77,40,2.06,US,1699924297
322,sirvintos,55.05,24.95,276.79,70,100,2.72,LT,1699924297
323,arraial do cabo,-22.9661,-42.0278,296.87,90,59,3.27,BR,1699924297
324,preobrazheniye,42.9019,133.9064,274.05,48,0,3.66,RU,1699924298
325,pekanbaru,0.5333,101.45,298.33,100,40,2.57,ID,1699924300
326,zheleznogorsk,52.331,35.3711,276.96,78,100,6.31,RU,1699924300
327,ezhva,61.8128,50.7283,274.03,100,100,3.0,RU,1699924300
328,turkmenabat,39.0733,63.5786,283.26,42,100,3.75,TM,1699924301
329,nikel,69.4128,30.222,257.25,100,99,0.53,RU,1699924301
330,camacupa,-12.0167,17.4833,290.89,84,64,0.97,AO,1699924301
331,nelidovo,56.2211,32.7774,274.35,97,100,3.56,RU,1699924302
332,bonthe,7.5264,-12.505,299.54,86,100,1.86,SL,1699924302
333,essaouira,31.5125,-9.77,291.87,42,40,1.54,MA,1699924302
334,lai,9.3952,16.2989,297.44,75,100,0.5,TD,1699924303
335,conception bay south,47.4999,-52.9981,273.56,82,89,1.49,CA,1699924303
336,antalaha,-14.9003,50.2788,295.26,88,81,1.58,MG,1699924303
337,sestri levante,44.2732,9.3968,290.4,87,100,2.45,IT,1699924304
338,birao,10.2849,22.7882,297.5,69,14,1.56,CF,1699924304
339,multai,21.7667,78.25,289.9,56,100,2.13,IN,1699924305
340,bakchar,57.0186,82.0711,268.66,90,6,1.66,RU,1699924305
341,pisco,-13.7,-76.2167,293.16,82,0,6.17,PE,1699924306
342,hadibu,12.65,54.0333,299.34,86,85,4.98,YE,1699924306
343,kutum,14.2,24.6667,296.25,34,21,3.76,SD,1699924306
344,mizdah,31.4451,12.9801,288.19,82,0,1.42,LY,1699924307
345,port saint john's,-31.6229,29.5448,289.86,77,100,2.82,ZA,1699924307
346,mount isa,-20.7333,139.5,309.02,17,0,6.17,AU,1699924307
347,senador jose porfirio,-2.5908,-51.9542,301.45,52,100,0.83,BR,1699924308
348,guerrero negro,27.9769,-114.0611,294.04,54,100,4.59,MX,1699924308
349,ripley,53.0333,-1.4,283.95,90,9,3.13,GB,1699924309
350,saint-pierre,-21.3393,55.4781,296.8,68,61,2.57,RE,1699924309
351,peniche,39.3558,-9.3811,289.51,90,100,2.44,PT,1699924309
352,leava,-14.3,-178.1667,301.89,82,100,7.0,WF,1699924310
353,gaspe,48.8334,-64.4819,272.27,80,100,2.06,CA,1699924310
354,koungou,-12.7336,45.2042,299.99,89,0,2.06,YT,1699924310
355,al wafrah,28.6392,47.9306,293.97,61,6,2.67,KW,1699924310
356,weno,7.4515,151.8468,303.12,79,100,2.57,FM,1699924311
357,yuzhno-kurilsk,44.0306,145.8556,275.58,80,77,10.27,RU,1699924311
358,lyantor,61.6195,72.1555,264.38,89,100,4.65,RU,1699924311
359,hachinohe,40.5,141.5,280.1,67,8,6.94,JP,1699924312
360,bamboo flat,11.7,92.7167,298.2,94,100,1.03,IN,1699924312
361,prado,-17.3411,-39.2208,297.77,82,23,6.43,BR,1699924312
362,bastrop,32.7562,-91.8724,290.14,74,100,0.0,US,1699924176
363,santa maria da boa vista,-8.8078,-39.8256,303.05,22,9,3.44,BR,1699924313
364,konarka,19.9,86.1167,295.37,76,96,4.16,IN,1699924313
365,james island,19.9,86.1167,295.37,76,96,4.16,IN,1699924313
366,bardai,11.65,7.2333,294.79,23,100,3.25,NG,1699924314
367,levis,46.8033,-71.1779,273.01,84,44,1.79,CA,1699924126
368,kristiansund,63.1115,7.732,274.51,64,20,2.06,NO,1699924315
369,severnoye,56.3491,78.3619,274.25,99,100,2.68,RU,1699924315
370,stony plain,53.5334,-114.0021,275.23,61,100,6.4,CA,1699924315
371,tomok bolon,53.5334,-114.0021,275.23,61,100,6.4,CA,1699924315
372,teguise,29.0605,-13.564,294.27,35,0,3.6,ES,1699924316
373,qamdo,31.1667,97.2333,268.67,50,64,1.88,CN,1699924316
374,haldensleben i,52.2891,11.4098,284.55,79,100,8.12,DE,1699924317
375,puerto santa,-8.9906,-78.6456,292.71,86,10,4.65,PE,1699924317
376,jalgaon jamod,21.0486,76.5344,291.46,48,100,1.28,IN,1699924317
377,huaihua,27.5494,109.9592,281.3,75,74,0.65,CN,1699924318
378,uribia,11.7139,-72.266,301.25,79,92,8.7,CO,1699924318
379,queenstown,-31.8976,26.8753,283.58,83,95,3.21,ZA,1699924318
380,anadyr,64.75,177.4833,261.43,72,13,10.0,RU,1699924174
381,roma,43.2128,-75.4557,278.08,77,0,2.57,US,1699924319
382,asifabad,19.3667,79.2833,292.93,61,100,1.19,IN,1699924319
383,musay'id,19.3667,79.2833,292.93,61,100,1.19,IN,1699924319
384,rovnoye,50.7765,46.0509,279.56,83,100,3.6,RU,1699924320
385,manta,-0.95,-80.7333,297.03,88,40,5.66,EC,1699924320
386,fraccionamiento arboledas san ramon,-0.95,-80.7333,297.03,88,40,5.66,EC,1699924320
387,bikin,46.8161,134.26,266.46,78,9,1.66,RU,1699924321
388,galliano,29.4422,-90.2992,290.37,94,100,6.52,US,1699924321
389,tchintabaraden,15.8969,5.7985,296.1,14,2,3.37,NE,1699924322
390,vryheid,-27.7695,30.7917,285.08,95,100,2.07,ZA,1699924322
391,kokopo,-4.352,152.2633,302.4,62,75,2.36,PG,1699924323
392,itigi,-5.7,34.4833,293.03,80,100,1.28,TZ,1699924323
393,neiafu,-18.65,-173.9833,300.53,83,75,4.12,TO,1699924324
394,caleta olivia,-46.4393,-67.5281,281.31,67,100,11.7,AR,1699924108
395,yanchep,-31.55,115.6833,298.49,56,2,2.69,AU,1699924325
396,yorkton,51.2167,-102.4677,273.06,80,20,5.14,CA,1699924325
397,dudinka,69.4058,86.1778,251.75,90,8,3.5,RU,1699924326
398,aral,40.5156,81.2636,277.15,39,0,3.23,CN,1699924326
399,ronda,36.7423,-5.1671,289.02,37,100,1.31,ES,1699924327
400,mantyharju,61.4167,26.8833,272.21,90,97,3.45,FI,1699924327
401,hajipur,25.6833,85.2167,292.14,100,87,0.0,IN,1699924327
402,winejok,25.6833,85.2167,292.14,100,87,0.0,IN,1699924327
403,aykhal,66.0,111.5,264.12,92,100,4.89,RU,1699924176
404,changji,44.0167,87.3167,275.59,93,75,4.0,CN,1699924330
405,hafar al-batin,28.4328,45.9708,293.47,49,0,3.6,SA,1699924330
406,tamanrasset,22.785,5.5228,287.1,24,0,0.0,DZ,1699924331
407,sarupathar,26.1984,93.8094,291.55,86,16,0.79,IN,1699924043
408,cockburn town,21.4612,-71.1419,301.28,76,16,8.32,TC,1699924192
409,pahokee,26.8201,-80.6653,297.6,82,100,4.8,US,1699924136
410,pundong,-7.9522,110.3486,301.71,74,81,4.26,ID,1699924332
411,parepare,-7.9522,110.3486,301.71,74,81,4.26,ID,1699924332
412,medina,24.4686,39.6142,298.39,29,40,1.54,SA,1699924333
413,greymouth,-42.4667,171.2,286.86,97,100,4.37,NZ,1699924167
414,valdivia,-39.8142,-73.2459,278.7,98,16,1.23,CL,1699924182
415,hobyo,5.3505,48.5268,299.52,84,32,2.22,SO,1699924334
416,nizhneangarsk,55.7833,109.55,266.48,76,100,0.45,RU,1699924335
417,kununurra,-15.7667,128.7333,305.14,66,99,1.03,AU,1699924068
418,lata,40.1629,-8.3327,288.1,94,100,0.61,PT,1699924336
419,hasaki,35.7333,140.8333,289.42,38,0,4.32,JP,1699924336
420,saldanha,-33.0117,17.9442,288.93,74,10,4.01,ZA,1699924198
421,mahdia,35.5047,11.0622,290.12,63,6,3.16,TN,1699924337
422,bodaybo,57.8506,114.1933,264.71,95,100,1.05,RU,1699924337
423,krasnogorskoye,52.2953,86.1979,275.42,99,100,3.6,RU,1699924338
424,blackwater,-23.5833,148.8833,303.54,49,0,3.64,AU,1699924338
425,znamenskoye,57.1281,73.8282,273.15,92,98,2.59,RU,1699924339
426,centerport,40.8854,-73.3762,281.85,75,75,0.0,US,1699924339
427,tucumcari,35.1717,-103.725,282.06,57,0,3.09,US,1699924259
428,kolonia town,6.964,158.206,305.15,66,100,2.57,FM,1699924340
429,stornoway,58.2093,-6.3865,282.13,88,100,3.09,GB,1699924341
430,kolonia,50.9333,6.95,285.51,74,20,8.23,DE,1699924048
431,gracemere,-23.4333,150.45,302.1,39,0,3.6,AU,1699924342
432,meiganga,6.5167,14.3,292.38,93,88,1.3,CM,1699924342
433,tanjung selor,6.5167,14.3,292.38,93,88,1.3,CM,1699924342
434,berezovyy,51.6667,135.7,266.57,55,0,1.05,RU,1699924344
435,turkeli,41.9476,34.3386,288.19,90,100,9.11,TR,1699924344
436,cururupu,-1.8283,-44.8683,296.96,89,10,1.66,BR,1699924344
437,troitsko-pechorsk,62.7084,56.1964,271.31,96,100,5.36,RU,1699924345
438,merowe,18.4833,31.8167,300.78,29,100,2.63,SD,1699924347
439,remedios,22.4947,-79.5458,297.66,78,27,5.48,CU,1699924348
440,golyshmanovo,56.3979,68.3728,276.39,84,100,6.78,RU,1699924348
441,sao joao da barra,-21.6403,-41.0511,297.09,89,100,5.3,BR,1699924312
442,praia da vitoria,38.7333,-27.0667,289.13,94,100,1.2,PT,1699924349
443,praia,14.9215,-23.5087,299.45,57,0,5.66,CV,1699924349
444,usinsk,65.9939,57.5281,263.75,87,100,3.13,RU,1699924350
445,arua,3.0201,30.9111,290.98,89,58,1.05,UG,1699924350
446,joshimath,30.5667,79.5667,283.06,28,100,2.95,IN,1699924351
447,maloye ganyushkino,46.6,49.2667,282.36,73,100,3.98,KZ,1699924351
448,alo,7.4178,6.7371,299.72,79,97,0.86,NG,1699924351
449,ardooie,50.9757,3.1974,286.48,82,100,7.15,BE,1699924352
450,easton,40.6884,-75.2207,279.18,74,0,0.0,US,1699924352
451,nikolayevsk-on-amure,53.1406,140.73,266.66,85,100,3.18,RU,1699924151
452,mezhdurechenskiy,59.6,65.9333,273.8,97,100,5.22,RU,1699924353
453,espargos,59.6,65.9333,273.8,97,100,5.22,RU,1699924353
454,touros,-5.1989,-35.4608,299.83,79,94,5.27,BR,1699924254
455,gandiaye,14.2333,-16.2667,299.67,22,100,4.64,SN,1699924354
456,carnarvon,-24.8667,113.6333,294.56,68,100,2.97,AU,1699924355
457,sibay,52.7181,58.6658,275.49,84,100,1.79,RU,1699924355
458,alaghsas,17.0187,8.0168,296.55,15,5,4.87,NE,1699924355
459,somerset east,-32.7217,25.588,283.36,92,14,3.59,ZA,1699924356
460,fisterra,42.9049,-9.2629,291.9,96,100,12.82,ES,1699924356
461,chipinge,-20.1883,32.6236,289.11,89,56,2.86,ZW,1699924356
462,amungan,15.3652,119.9582,302.63,64,97,2.31,PH,1699924357
463,cabo san lucas,22.8909,-109.9124,301.35,62,20,3.09,MX,1699924252
464,tanrake village,22.8909,-109.9124,301.35,62,20,3.09,MX,1699924252
465,taoyuan city,24.9937,121.297,294.24,79,75,6.17,TW,1699924358
466,gandorhun,7.5,-11.8333,297.48,94,23,0.47,SL,1699924358
467,pagar alam,-4.0167,103.2667,297.8,85,100,0.83,ID,1699924359
468,tralee,52.2704,-9.7026,284.23,88,100,6.19,IE,1699924359
469,karagandy,49.8019,73.1021,275.12,90,59,2.94,KZ,1699924360
470,carutapera,-1.195,-46.02,298.56,82,56,3.31,BR,1699924247
471,hilo,19.7297,-155.09,301.0,65,20,2.57,US,1699924173
472,bugene,-1.5911,31.1403,285.97,95,64,1.05,TZ,1699924361
473,kasane,-17.8167,25.15,297.47,30,87,0.44,BW,1699924361
474,moroni,-11.7022,43.2551,299.41,81,56,1.54,KM,1699924361
475,zhezqazghan,47.7833,67.7667,272.47,93,20,4.0,KZ,1699924362
476,hammerfest,70.6634,23.6821,272.4,86,75,1.54,NO,1699924362
477,egersund,58.4513,5.9997,278.2,66,100,11.6,NO,1699924363
478,venev,54.3553,38.2684,277.09,83,100,7.29,RU,1699924363
479,huancavelica,-12.7667,-74.9833,279.62,78,100,1.7,PE,1699924363
480,los altos,37.3852,-122.1141,291.66,68,0,4.63,US,1699924364
481,acarau,-2.8856,-40.12,299.88,80,100,7.36,BR,1699924364
482,port glaud,-2.8856,-40.12,299.88,80,100,7.36,BR,1699924364
483,fort bragg,35.139,-79.006,282.67,84,0,1.54,US,1699924254
484,san luis de la loma,17.2706,-100.8939,300.26,81,23,2.65,MX,1699924365
485,boende,-0.2167,20.8667,294.76,97,92,0.54,CD,1699924365
486,dila,6.4167,38.3167,289.33,94,99,1.44,ET,1699924366
487,nadi,-17.8,177.4167,304.15,62,75,7.72,FJ,1699924366
488,remire-montjoly,4.9167,-52.2667,299.17,89,0,1.54,GF,1699924366
489,magaria,12.9983,8.9099,296.65,16,100,4.02,NE,1699924367
490,jabor,5.921,169.6434,301.02,81,100,6.68,MH,1699924367
491,aron,24.3833,77.4167,289.49,50,100,2.8,IN,1699924367
492,mersing,2.4312,103.8405,301.19,80,98,1.89,MY,1699924368
493,dolinsk,47.35,142.8,270.22,78,100,2.66,RU,1699924369
494,jawhar,2.7809,45.5005,298.18,86,100,1.98,SO,1699924369
495,severo-yeniseyskiy,60.3725,93.0408,262.51,94,100,3.49,RU,1699924316
496,kyzylorda,44.8528,65.5092,276.76,69,35,5.45,KZ,1699924370
497,wanning,18.8003,110.3967,296.22,88,100,4.66,CN,1699924371
498,hualien city,23.9769,121.6044,294.66,84,90,3.0,TW,1699924371
499,quellon,-43.1167,-73.6167,277.99,78,84,3.58,CL,1699924371
500,buurhakaba,2.8026,44.0781,297.2,91,58,2.46,SO,1699924372
501,nabire,-3.3667,135.4833,303.95,60,98,1.89,ID,1699924372
502,svetlyy,54.675,20.1347,278.35,79,100,3.82,RU,1699924372
503,santa eularia des riu,38.9846,1.5341,291.42,90,0,2.57,ES,1699924373
504,smidovich,48.6,133.8167,261.22,90,6,1.41,RU,1699924373
505,kalianget,-7.05,113.9333,302.99,67,78,3.9,ID,1699924373
506,qarqin,37.4185,66.0436,285.58,34,51,2.32,AF,1699924374
507,marawi city,8.0,124.2833,299.21,72,82,0.39,PH,1699924374
508,port-vila,-17.7338,168.3219,299.93,65,75,6.17,VU,1699924092
509,chibuto,-24.6867,33.5306,293.64,74,100,4.57,MZ,1699924375
510,talne,-24.6867,33.5306,293.64,74,100,4.57,MZ,1699924375
511,labytnangi,66.6572,66.4183,253.14,100,100,0.57,RU,1699924375
512,palikir - national government center,6.9248,158.1611,304.56,66,100,2.57,FM,1699924376
513,san-pedro,4.7485,-6.6363,298.87,88,86,1.0,CI,1699924376
514,ustka,54.5805,16.8619,276.29,97,100,7.23,PL,1699924376
515,ibiza,38.9088,1.433,291.37,90,0,2.06,ES,1699924138
516,miyanoura,38.9088,1.433,291.37,90,0,2.06,ES,1699924138
517,naze,28.3667,129.4833,289.93,59,80,3.74,JP,1699924377
518,nuuk,64.1835,-51.7216,269.49,86,100,6.71,GL,1699924185
519,christchurch,-43.5333,172.6333,298.26,38,100,5.66,NZ,1699924238
520,vrangel',42.7297,133.0839,273.59,48,0,3.45,RU,1699924184
521,coquimbo,-29.9533,-71.3436,288.1,74,4,1.98,CL,1699924378
522,ito,34.9667,139.0833,288.53,65,100,0.45,JP,1699924194
523,lavis,46.1395,11.1129,289.98,49,0,10.29,IT,1699924379
524,tarija,-21.5355,-64.7296,294.1,78,75,2.06,BO,1699924379
525,boa vista,2.8197,-60.6733,303.14,58,20,3.09,BR,1699924380
526,glace bay,46.1969,-59.957,275.25,92,100,2.06,CA,1699924380
527,noumea,-22.2763,166.4572,300.14,60,55,8.32,NC,1699924380
528,mukah,-22.2763,166.4572,300.14,60,55,8.32,NC,1699924380
529,gamay,12.3854,125.2979,300.72,89,100,4.3,PH,1699924381
530,turbat,26.0023,63.044,294.88,22,3,2.16,PK,1699924381
531,kirakira,-10.4544,161.9205,300.61,79,96,1.71,SB,1699924306
532,armacao de buzios,-22.7469,-41.8817,296.92,90,76,3.21,BR,1699924256
533,conde,-7.2597,-34.9075,297.85,94,20,2.06,BR,1699924382
534,lautoka,-17.6167,177.4667,304.07,62,75,7.72,FJ,1699924383
535,devgarh,25.5333,73.9,291.1,39,100,1.98,IN,1699924383
536,turpan,42.9333,89.1667,280.51,31,100,1.34,CN,1699924384
537,makarov,48.6333,142.8,271.61,61,30,5.4,RU,1699924385
538,qashyr,53.0675,76.1036,275.4,89,99,3.11,KZ,1699924385
539,new norfolk,-42.7826,147.0587,290.21,37,11,3.2,AU,1699924223
540,polyarnyy,69.1989,33.4478,264.31,96,86,0.86,RU,1699924386
541,jimenez,28.3333,-105.4,290.21,63,100,4.8,MX,1699924386
542,lapa,-25.7697,-49.7158,292.32,98,93,1.09,BR,1699924118
543,bubaque,11.2833,-15.8333,301.4,69,51,5.22,GW,1699924387
544,kimbe,-5.5502,150.1429,304.58,54,100,1.3,PG,1699924387
545,nago,26.5881,127.9761,296.39,63,88,4.35,JP,1699924388
546,hwange,-18.3693,26.5019,298.73,40,7,2.2,ZW,1699924388
547,dwarka,22.2394,68.9678,298.78,41,97,4.92,IN,1699924388
548,tasbuget,22.2394,68.9678,298.78,41,97,4.92,IN,1699924388
549,marneuli,41.4759,44.8089,283.56,55,19,0.83,GE,1699924389
550,lensk,60.7253,114.9278,267.93,92,98,3.57,RU,1699924390
551,chinde,26.8418,88.0763,285.89,66,7,2.23,NP,1699924261
552,angaur state,6.906,134.13,302.23,74,54,5.51,PW,1699924390
553,flin flon,54.7682,-101.865,272.69,89,100,3.96,CA,1699924391
554,petrozavodsk,61.7849,34.3469,273.44,98,100,7.15,RU,1699924391
555,nuku'alofa,-21.1333,-175.2,295.34,100,100,8.75,TO,1699924392
556,alliance,40.9153,-81.1059,282.58,62,0,4.19,US,1699924392
557,igarka,67.4667,86.5833,257.82,90,86,7.64,RU,1699924393
558,as suwayq,23.8494,57.4386,297.6,41,100,0.2,OM,1699924393
559,rock springs,41.5875,-109.2029,279.84,44,0,5.14,US,1699924196
560,kumylzhenskaya,49.8809,42.5898,278.88,79,100,2.24,RU,1699924394
561,tynda,55.1667,124.7167,261.93,81,100,0.59,RU,1699924394
562,greenwood,34.1668,-82.1165,283.75,65,0,0.0,US,1699924395
563,dickinson,29.4608,-95.0513,289.91,94,100,5.14,US,1699924306
564,puerto deseado,-47.7503,-65.8938,282.28,52,100,10.86,AR,1699924395
565,n'zeto,-7.2312,12.8666,299.06,90,100,2.5,AO,1699924396
566,aswan,24.0934,32.907,299.4,45,9,4.86,EG,1699924396
567,loddekopinge,55.7667,13.0167,279.1,91,100,8.53,SE,1699924397
568,petrolina,-9.3986,-40.5008,300.18,39,0,2.06,BR,1699924397
569,whitby,54.4877,-0.615,282.52,80,95,10.15,GB,1699924173
570,kisi,9.0833,3.85,297.33,40,13,0.4,NG,1699924398
571,pont-rouge,46.7566,-71.6978,272.92,68,100,1.45,CA,1699924281
572,west torrington,41.8184,-73.1437,276.38,78,83,1.6,US,1699924398
573,foligno,42.944,12.7011,286.77,100,89,3.28,IT,1699924399
574,axim,4.8699,-2.2405,299.02,89,0,2.06,GH,1699924399
575,kourou,5.1552,-52.6478,299.18,87,11,3.75,GF,1699924399
576,targuist,34.9377,-4.3186,288.68,31,100,1.05,MA,1699924400
577,malanville,11.8685,3.3899,296.96,17,10,2.53,BJ,1699924400
578,cuajinicuilapa,16.4667,-98.4167,299.38,81,11,1.09,MX,1699924400
579,talara,-4.5772,-81.2719,294.57,88,75,6.69,PE,1699924401
580,melendugno,40.2747,18.3368,285.2,100,0,2.06,IT,1699924401
581,saipan,15.1355,145.701,304.54,66,40,8.75,MP,1699924402
582,devinuwara,15.1355,145.701,304.54,66,40,8.75,MP,1699924402
583,agva,15.1355,145.701,304.54,66,40,8.75,MP,1699924402
584,aldinga beach,-35.2793,138.4604,292.05,83,100,4.17,AU,1699924288
585,gadzhiyevo,69.2551,33.3362,264.38,96,87,1.01,RU,1699924403
586,port douglas,-16.4833,145.4667,299.13,61,58,4.44,AU,1699924403
587,yeppoon,-23.1333,150.7333,302.03,54,0,5.66,AU,1699924404
588,aras-asan,8.8908,126.3033,301.61,74,99,0.86,PH,1699924404
589,bullsbrook,-31.6667,116.0,298.66,58,0,3.6,AU,1699924404
590,kannus,63.9,23.9,271.72,89,100,3.02,FI,1699924405
591,arenapolis,-14.4503,-56.8461,300.59,55,99,1.96,BR,1699924405
592,port macquarie,-31.4333,152.9167,298.09,63,6,5.53,AU,1699924405
593,coahuayana de hidalgo,18.7,-103.6583,299.78,81,7,0.71,MX,1699924406
594,at taj,24.2049,23.2857,290.98,34,0,4.51,LY,1699924406
595,ta`u,-14.2336,-169.5144,301.44,80,22,5.98,AS,1699924251
596,itaituba,-4.2761,-55.9836,303.48,47,100,1.16,BR,1699924407
597,olinda,-8.0089,-34.8553,300.0,78,20,2.57,BR,1699924407
598,barah,13.7,30.3667,301.45,28,24,5.2,SD,1699924407
599,harnoli,32.2792,71.5539,292.36,47,0,1.08,PK,1699924408
600,akureyri,65.6835,-18.0878,276.11,75,75,2.06,IS,1699924408
601,es castell,39.8795,4.2854,290.53,100,0,3.09,ES,1699924408
602,lajeado,-29.4669,-51.9614,295.6,93,100,0.11,BR,1699924117
603,mwatate,-3.5029,38.3795,293.53,97,38,0.69,KE,1699924409
604,toliara,-23.35,43.6667,294.21,84,9,4.51,MG,1699924409
605,taksimo,56.3444,114.8794,260.81,84,44,0.38,RU,1699924410
606,kwang binh,17.4833,106.6,295.38,90,99,5.33,VN,1699924410
607,springs,-26.25,28.4,288.89,96,62,4.81,ZA,1699924411
608,cable beach,-26.25,28.4,288.89,96,62,4.81,ZA,1699924411
609,laurel,39.0993,-76.8483,282.64,74,0,1.54,US,1699924412
610,slantsy,59.1182,28.0914,274.25,96,100,1.36,RU,1699924412
611,nicoya,10.1483,-85.452,297.84,93,100,0.71,CR,1699924412
612,kapa'a,22.0752,-159.319,302.14,80,75,7.72,US,1699924413
613,qui nhon,13.7667,109.2333,299.3,88,94,6.38,VN,1699924413
614,karachi,24.9056,67.0822,292.05,55,99,0.0,PK,1699924203
